[
  {"name": "北京协和医院", "address": "北京市东城区帅府园1号", "level": "三甲", "latitude": 39.9120, "longitude": 116.4150},
  {"name": "北京大学第一医院", "address": "北京市西城区西什库大街8号", "level": "三甲", "latitude": 39.9280, "longitude": 116.3720},
  {"name": "中国人民解放军总医院", "address": "北京市海淀区复兴路28号", "level": "三甲", "latitude": 39.9070, "longitude": 116.2870},
  {"name": "北京天坛医院", "address": "北京市丰台区南四环西路119号", "level": "三甲", "latitude": 39.8560, "longitude": 116.2890},
  {"name": "北京朝阳医院", "address": "北京市朝阳区工人体育场南路8号", "level": "三甲", "latitude": 39.9290, "longitude": 116.4530},
  {"name": "北京安贞医院", "address": "北京市朝阳区安贞路2号", "level": "三甲", "latitude": 39.9720, "longitude": 116.4070},
  {"name": "北京友谊医院", "address": "北京市西城区永安路95号", "level": "三甲", "latitude": 39.8860, "longitude": 116.3910},
  {"name": "北京积水潭医院", "address": "北京市西城区新街口东街31号", "level": "三甲", "latitude": 39.9430, "longitude": 116.3720},
  {"name": "首都医科大学宣武医院", "address": "北京市西城区长椿街45号", "level": "三甲", "latitude": 39.8920, "longitude": 116.3640},
  {"name": "北京中日友好医院", "address": "北京市朝阳区樱花园东街", "level": "三甲", "latitude": 39.9780, "longitude": 116.4280}
]
